#version,serial,flight,call,time,rssi,lqi,state,state_name,acceleration,pressure,altitude,height,speed,temperature,drogue_voltage,main_voltage,battery_voltage,accel_x,accel_y,accel_z,gyro_roll,gyro_pitch,gyro_yaw,mag_x,mag_y,mag_z,tilt,pyro,igniter_a,igniter_b,igniter_c,igniter_d,connected,locked,nsat,latitude,longitude,altitude,year,month,day,hour,minute,second,pad_dist,pad_range,pad_az,pad_el,pdop,hdop,vdop,sat01,sat02,sat03,sat04,sat05,sat06,sat07,sat08,sat09,sat10,sat11,sat12,sat13,sat14,sat15,sat16,sat17,sat18,sat19,sat20,sat21,sat22,sat23,sat24,sat25,sat26,sat27,sat28,sat29,sat30,sat31,sat32
6, 10923, 3,N0AHK,    -0.90, -80,   6, 3,   boost,    0.50,  99139.00,  183.58,   -1.19,    0.00, 25.3, 9.01, 0.00, 4.09,   9.91,   0.38,  -0.30,   0.43,   0.12,   0.18,   0.20,   0.21,  -0.09,   1.00, 0.00, 0.00, 0.00, 0.00, 0.00, 1, 1, 11,  38.3982991, -78.0640532,   119.0, 2023, 10, 15, 17, 48, 41,        0,        0,   0,   0,   1.4,   0.7,   1.2,  0, 37,  0,  0,  0,  0,  0,  0,  0, 29,  0, 20,  0,  0,  0,  0,  0,  9,  0,  0, 37,  0, 29, 24, 21,  0,  0, 38,  0,  0, 35, 34
6, 10923, 3,N0AHK,    -0.90, -80,   5, 3,   boost,    0.50,  99139.00,  183.58,   -1.19,    0.00, 25.3, 9.01, 0.00, 4.09,   9.91,   0.38,  -0.30,   0.43,   0.12,   0.18,   0.20,   0.21,  -0.09,   1.00, 0.00, 0.00, 0.00, 0.00, 0.00, 1, 1, 11,  38.3982991, -78.0640532,   119.0, 2023, 10, 15, 17, 48, 41,        0,        0,   0,   0,   1.4,   0.7,   1.2,  0, 37,  0,  0,  0,  0,  0,  0,  0, 29,  0, 20,  0,  0,  0,  0,  0,  9,  0,  0, 37,  0, 29, 24, 21,  0,  0, 38,  0,  0, 35, 34
6, 10923, 3,N0AHK,    -0.47, -79,   6, 3,   boost,    0.50,  99139.00,  183.58,   -1.19,    0.00, 25.3, 9.01, 0.00, 4.09,   9.91,   0.38,  -0.30,   0.43,   0.12,   0.18,   0.20,   0.21,  -0.09,   1.00, 0.00, 0.00, 0.00, 0.00, 0.00, 1, 1, 11,  38.3982991, -78.0640532,   119.0, 2023, 10, 15, 17, 48, 41,        0,        0,   0,   0,   1.4,   0.7,   1.2,  0, 37,  0,  0,  0,  0,  0,  0,  0, 29,  0, 20,  0,  0,  0,  0,  0,  9,  0,  0, 37,  0, 29, 24, 21,  0,  0, 38,  0,  0, 35, 34
6, 10923, 3,N0AHK,    -0.44, -79,   8, 3,   boost,    0.50,  99139.00,  183.58,   -1.19,    0.00, 25.3, 9.01, 0.00, 4.09,   9.91,   0.38,  -0.30,   0.43,   0.12,   0.18,   0.20,   0.21,  -0.09,   1.00, 0.00, 0.00, 0.00, 0.00, 0.00, 1, 1, 11,  38.3982991, -78.0640532,   119.0, 2023, 10, 15, 17, 48, 41,        0,        0,   0,   0,   1.4,   0.7,   1.2,  0, 37,  0,  0,  0,  0,  0,  0,  0, 29,  0, 20,  0,  0,  0,  0,  0,  9,  0,  0, 37,  0, 29, 24, 21,  0,  0, 38,  0,  0, 35, 34
6, 10923, 3,N0AHK,    -0.03, -73,   5, 3,   boost,   97.06,  99105.00,  186.46,    1.69,   21.45, 25.3, 9.01, 0.00, 4.09, 103.67,  -1.37,  -3.28, -20.39,   0.31,  -0.85,   0.19,   0.20,  -0.09,   2.00, 0.00, 0.00, 0.00, 0.00, 0.00, 1, 1, 11,  38.3982991, -78.0640532,   119.0, 2023, 10, 15, 17, 48, 41,        0,        0,   0,   0,   1.4,   0.7,   1.2,  0, 37,  0,  0,  0,  0,  0,  0,  0, 29,  0, 20,  0,  0,  0,  0,  0,  9,  0,  0, 37,  0, 29, 24, 21,  0,  0, 38,  0,  0, 35, 34
6, 10923, 3,N0AHK,     0.00, -74,   7, 3,   boost,   97.06,  99105.00,  186.46,    1.69,   21.45, 25.3, 9.07, 0.00, 4.10, 103.67,  -1.37,  -3.28, -20.39,   0.31,  -0.85,   0.19,   0.20,  -0.09,   2.00, 0.00, 0.00, 0.00, 0.00, 0.00, 1, 1, 11,  38.3982991, -78.0640532,   119.0, 2023, 10, 15, 17, 48, 41,        0,        0,   0,   0,   1.4,   0.7,   1.2,  0, 37,  0,  0,  0,  0,  0,  0,  0, 29,  0, 20,  0,  0,  0,  0,  0,  9,  0,  0, 37,  0, 29, 24, 21,  0,  0, 38,  0,  0, 35, 34
6, 10923, 3,N0AHK,     0.10, -75,   6, 3,   boost,   97.06,  99105.00,  186.46,    1.69,   21.45, 25.3, 9.07, 0.00, 4.10, 103.67,  -1.37,  -3.28, -20.39,   0.31,  -0.85,   0.19,   0.20,  -0.09,   2.00, 0.00, 0.00, 0.00, 0.00, 0.00, 1, 1, 11,  38.3982997, -78.0640547,   120.0, 2023, 10, 15, 17, 48, 42,        0,        1, 297,  82,   1.4,   0.7,   1.2,  0, 37,  0,  0,  0,  0,  0,  0,  0, 28,  0, 18,  0,  0,  0,  0,  0, 10,  0,  0, 37,  0, 28, 23, 21,  0,  0, 37,  0,  0, 35, 33
6, 10923, 3,N0AHK,     0.77, -86,   6, 3,   boost,  102.59,  98645.00,  225.52,   40.75,  100.60, 25.3, 9.07, 0.00, 4.10, 110.83,  -3.43,   0.29,-311.83,  23.13,   8.79,   0.13,  -0.14,   0.10,  10.00, 0.00, 0.00, 0.00, 0.00, 0.00, 1, 1, 11,  38.3982997, -78.0640547,   120.0, 2023, 10, 15, 17, 48, 42,        0,        1, 297,  82,   1.4,   0.7,   1.2,  0, 37,  0,  0,  0,  0,  0,  0,  0, 28,  0, 18,  0,  0,  0,  0,  0, 10,  0,  0, 37,  0, 28, 23, 21,  0,  0, 37,  0,  0, 35, 33
6, 10923, 3,N0AHK,     0.80, -86,   6, 3,   boost,  102.59,  98645.00,  225.52,   40.75,  100.60, 25.3, 9.07, 0.00, 4.10, 110.83,  -3.43,   0.29,-311.83,  23.13,   8.79,   0.13,  -0.14,   0.10,  10.00, 0.00, 0.00, 0.00, 0.00, 0.00, 1, 1, 11,  38.3982997, -78.0640547,   120.0, 2023, 10, 15, 17, 48, 42,        0,        1, 297,  82,   1.4,   0.7,   1.2,  0, 37,  0,  0,  0,  0,  0,  0,  0, 28,  0, 18,  0,  0,  0,  0,  0, 10,  0,  0, 37,  0, 28, 23, 21,  0,  0, 37,  0,  0, 35, 33
6, 10923, 3,N0AHK,     0.87, -79,   8, 3,   boost,   98.57,  98515.00,  236.58,   51.82,  110.51, 25.3, 9.07, 0.00, 4.10, 107.40,  -1.42,   2.75,-397.46, -15.32, -21.24,   0.13,  -0.25,  -0.05,   9.00, 0.00, 0.00, 0.00, 0.00, 0.00, 1, 1, 11,  38.3982997, -78.0640547,   120.0, 2023, 10, 15, 17, 48, 42,        0,        1, 297,  82,   1.4,   0.7,   1.2,  0, 37,  0,  0,  0,  0,  0,  0,  0, 28,  0, 18,  0,  0,  0,  0,  0, 10,  0,  0, 37,  0, 28, 23, 21,  0,  0, 37,  0,  0, 35, 33
6, 10923, 3,N0AHK,     0.90, -76,   6, 3,   boost,   98.57,  98515.00,  236.58,   51.82,  110.51, 25.3, 9.01, 0.00, 4.09, 107.40,  -1.42,   2.75,-397.46, -15.32, -21.24,   0.13,  -0.25,  -0.05,   9.00, 0.00, 0.00, 0.00, 0.00, 0.00, 1, 1, 11,  38.3982997, -78.0640547,   120.0, 2023, 10, 15, 17, 48, 42,        0,        1, 297,  82,   1.4,   0.7,   1.2,  0, 37,  0,  0,  0,  0,  0,  0,  0, 28,  0, 18,  0,  0,  0,  0,  0, 10,  0,  0, 37,  0, 28, 23, 21,  0,  0, 37,  0,  0, 35, 33
6, 10923, 3,N0AHK,     0.98, -72,   5, 3,   boost,   95.05,  98399.00,  246.46,   61.70,  121.03, 25.3, 9.01, 0.00, 4.09, 103.61,  -1.77,  -3.31,-483.89, -32.84,   1.16,   0.14,  -0.24,  -0.26,   8.00, 0.00, 0.00, 0.00, 0.00, 0.00, 1, 1, 11,  38.3982997, -78.0640547,   120.0, 2023, 10, 15, 17, 48, 42,        0,        1, 297,  82,   1.4,   0.7,   1.2,  0, 37,  0,  0,  0,  0,  0,  0,  0, 28,  0, 18,  0,  0,  0,  0,  0, 10,  0,  0, 37,  0, 28, 23, 21,  0,  0, 37,  0,  0, 35, 33
6, 10923, 3,N0AHK,     1.01, -72,   7, 3,   boost,   95.05,  98399.00,  246.46,   61.70,  121.03, 25.3, 9.07, 0.00, 4.10, 103.61,  -1.77,  -3.31,-483.89, -32.84,   1.16,   0.14,  -0.24,  -0.26,   8.00, 0.00, 0.00, 0.00, 0.00, 0.00, 1, 1, 11,  38.3982997, -78.0640547,   120.0, 2023, 10, 15, 17, 48, 42,        0,        1, 297,  82,   1.4,   0.7,   1.2,  0, 37,  0,  0,  0,  0,  0,  0,  0, 28,  0, 19,  0,  0,  0,  0,  0, 10,  0,  0, 37,  0, 28, 23, 21,  0,  0, 35,  0,  0, 32, 34
6, 10923, 3,N0AHK,     1.01, -71,   8, 3,   boost,   95.05,  98399.00,  246.46,   61.70,  121.03, 25.3, 9.07, 0.00, 4.10, 103.61,  -1.77,  -3.31,-483.89, -32.84,   1.16,   0.14,  -0.24,  -0.26,   8.00, 0.00, 0.00, 0.00, 0.00, 0.00, 1, 1, 11,  38.3982997, -78.0640547,   120.0, 2023, 10, 15, 17, 48, 42,        0,        1, 297,  82,   1.4,   0.7,   1.2,  0, 37,  0,  0,  0,  0,  0,  0,  0, 28,  0, 19,  0,  0,  0,  0,  0, 10,  0,  0, 37,  0, 28, 23, 21,  0,  0, 35,  0,  0, 32, 34
6, 10923, 3,N0AHK,     1.09, -74,   6, 3,   boost,   89.01,  98243.00,  259.77,   75.01,  131.05, 25.3, 9.07, 0.00, 4.10,  95.90,  -6.29,  -1.69,-568.66,  -8.42, -27.59,   0.14,  -0.02,  -0.42,   7.00, 0.00, 0.00, 0.00, 0.00, 0.00, 1, 1,  9,  38.3982219, -78.0640582,   127.0, 2023, 10, 15, 17, 48, 43,        9,       12, 183,  43,   1.6,   1.0,   1.3,  0, 37,  0,  0,  0,  0,  0,  0,  0, 28,  0, 19,  0,  0,  0,  0,  0, 10,  0,  0, 37,  0, 28, 23, 21,  0,  0, 35,  0,  0, 32, 34
6, 10923, 3,N0AHK,     1.09, -72,  10, 3,   boost,   89.01,  98243.00,  259.77,   75.01,  131.05, 25.3, 9.07, 0.00, 4.10,  95.90,  -6.29,  -1.69,-568.66,  -8.42, -27.59,   0.14,  -0.02,  -0.42,   7.00, 0.00, 0.00, 0.00, 0.00, 0.00, 1, 1,  9,  38.3982219, -78.0640582,   127.0, 2023, 10, 15, 17, 48, 43,        9,       12, 183,  43,   1.6,   1.0,   1.3,  0, 37,  0,  0,  0,  0,  0,  0,  0, 28,  0, 19,  0,  0,  0,  0,  0, 10,  0,  0, 37,  0, 28, 23, 21,  0,  0, 35,  0,  0, 32, 34
6, 10923, 3,N0AHK,     1.12, -76,   7, 3,   boost,   89.01,  98243.00,  259.77,   75.01,  131.05, 25.3, 9.01, 0.00, 4.10,  95.90,  -6.29,  -1.69,-568.66,  -8.42, -27.59,   0.14,  -0.02,  -0.42,   7.00, 0.00, 0.00, 0.00, 0.00, 0.00, 1, 1,  9,  38.3982219, -78.0640582,   127.0, 2023, 10, 15, 17, 48, 43,        9,       12, 183,  43,   1.6,   1.0,   1.3,  0, 37,  0,  0,  0,  0,  0,  0,  0, 28,  0, 19,  0,  0,  0,  0,  0, 10,  0,  0, 37,  0, 28, 23, 21,  0,  0, 35,  0,  0, 32, 34
6, 10923, 3,N0AHK,     1.12, -78,   8, 3,   boost,   89.01,  98243.00,  259.77,   75.01,  131.05, 25.3, 9.01, 0.00, 4.10,  95.90,  -6.29,  -1.69,-568.66,  -8.42, -27.59,   0.14,  -0.02,  -0.42,   7.00, 0.00, 0.00, 0.00, 0.00, 0.00, 1, 1,  9,  38.3982219, -78.0640582,   127.0, 2023, 10, 15, 17, 48, 43,        9,       12, 183,  43,   1.6,   1.0,   1.3,  0, 37,  0,  0,  0,  0,  0,  0,  0, 28,  0, 19,  0,  0,  0,  0,  0, 10,  0,  0, 37,  0, 28, 23, 21,  0,  0, 35,  0,  0, 32, 34
6, 10923, 3,N0AHK,     1.20, -78,   5, 3,   boost,   78.96,  98105.00,  271.56,   86.79,  140.23, 25.3, 9.01, 0.00, 4.10,  89.27,  -2.64,  -3.99,-659.24, -28.87, -24.48,   0.15,   0.25,  -0.24,   5.00, 0.00, 0.00, 0.00, 0.00, 0.00, 1, 1,  9,  38.3982219, -78.0640582,   127.0, 2023, 10, 15, 17, 48, 43,        9,       12, 183,  43,   1.6,   1.0,   1.3,  0, 37,  0,  0,  0,  0,  0,  0,  0, 28,  0, 19,  0,  0,  0,  0,  0, 10,  0,  0, 37,  0, 28, 23, 21,  0,  0, 35,  0,  0, 32, 34
6, 10923, 3,N0AHK,     1.23, -77,   7, 3,   boost,   78.96,  98105.00,  271.56,   86.79,  140.23, 25.3, 9.07, 0.00, 4.10,  89.27,  -2.64,  -3.99,-659.24, -28.87, -24.48,   0.15,   0.25,  -0.24,   5.00, 0.00, 0.00, 0.00, 0.00, 0.00, 1, 1,  9,  38.3982219, -78.0640582,   127.0, 2023, 10, 15, 17, 48, 43,        9,       12, 183,  43,   1.6,   1.0,   1.3,  0, 37,  0,  0,  0,  0,  0,  0,  0, 28,  0, 19,  0,  0,  0,  0,  0, 10,  0,  0, 37,  0, 28, 23, 21,  0,  0, 35,  0,  0, 32, 34
6, 10923, 3,N0AHK,     1.31, -73,   6, 3,   boost,   72.42,  97939.00,  285.75,  100.99,  148.51, 25.3, 9.07, 0.00, 4.10,  81.56,  -5.93,  -2.38,-722.72,  -2.44, -30.46,   0.15,   0.16,   0.08,   7.00, 0.00, 0.00, 0.00, 0.00, 0.00, 1, 1,  9,  38.3982219, -78.0640582,   127.0, 2023, 10, 15, 17, 48, 43,        9,       12, 183,  43,   1.6,   1.0,   1.3,  0, 37,  0,  0,  0,  0,  0,  0,  0, 28,  0, 19,  0,  0,  0,  0,  0, 10,  0,  0, 37,  0, 28, 23, 21,  0,  0, 35,  0,  0, 32, 34
6, 10923, 3,N0AHK,     1.34, -72,   5, 3,   boost,   72.42,  97939.00,  285.75,  100.99,  148.51, 25.3, 9.07, 0.00, 4.10,  81.56,  -5.93,  -2.38,-722.72,  -2.44, -30.46,   0.15,   0.16,   0.08,   7.00, 0.00, 0.00, 0.00, 0.00, 0.00, 1, 1,  9,  38.3982219, -78.0640582,   127.0, 2023, 10, 15, 17, 48, 43,        9,       12, 183,  43,   1.6,   1.0,   1.3,  0, 37,  0,  0,  0,  0,  0,  0,  0, 28,  0, 19,  0,  0,  0,  0,  0, 10,  0,  0, 37,  0, 28, 23, 21,  0,  0, 35,  0,  0, 32, 34
6, 10923, 3,N0AHK,     1.42, -70,   5, 3,   boost,   65.88,  97774.00,  299.88,  115.11,  156.03, 25.2, 9.07, 0.00, 4.10,  75.97,  -2.42,  -1.60,-793.40, -19.53, -15.20,   0.13,  -0.19,   0.05,   9.00, 0.00, 0.00, 0.00, 0.00, 0.00, 1, 1,  9,  38.3982219, -78.0640582,   127.0, 2023, 10, 15, 17, 48, 43,        9,       12, 183,  43,   1.6,   1.0,   1.3,  0, 37,  0,  0,  0,  0,  0,  0,  0, 28,  0, 19,  0,  0,  0,  0,  0, 10,  0,  0, 37,  0, 28, 23, 21,  0,  0, 35,  0,  0, 32, 34
6, 10923, 3,N0AHK,     1.45, -68,   5, 3,   boost,   65.88,  97774.00,  299.88,  115.11,  156.03, 25.2, 9.01, 0.00, 4.10,  75.97,  -2.42,  -1.60,-793.40, -19.53, -15.20,   0.13,  -0.19,   0.05,   9.00, 0.00, 0.00, 0.00, 0.00, 0.00, 1, 1,  9,  38.3982219, -78.0640582,   127.0, 2023, 10, 15, 17, 48, 43,        9,       12, 183,  43,   1.6,   1.0,   1.3,  0, 37,  0,  0,  0,  0,  0,  0,  0, 28,  0, 19,  0,  0,  0,  0,  0, 10,  0,  0, 37,  0, 28, 23, 21,  0,  0, 35,  0,  0, 32, 34
6, 10923, 3,N0AHK,     1.53, -69,   6, 3,   boost,   64.37,  97595.00,  315.23,  130.46,  163.10, 25.2, 9.01, 0.00, 4.10,  72.63,  -7.58,   1.34,-860.29, -10.44, -34.12,   0.14,  -0.18,  -0.35,   8.00, 0.00, 0.00, 0.00, 0.00, 0.00, 1, 1,  9,  38.3982219, -78.0640582,   127.0, 2023, 10, 15, 17, 48, 43,        9,       12, 183,  43,   1.6,   1.0,   1.3,  0, 37,  0,  0,  0,  0,  0,  0,  0, 28,  0, 19,  0,  0,  0,  0,  0, 10,  0,  0, 37,  0, 28, 23, 21,  0,  0, 35,  0,  0, 32, 34
6, 10923, 3,N0AHK,     1.56, -70,   7, 3,   boost,   64.37,  97595.00,  315.23,  130.46,  163.10, 25.2, 9.07, 0.00, 4.10,  72.63,  -7.58,   1.34,-860.29, -10.44, -34.12,   0.14,  -0.18,  -0.35,   8.00, 0.00, 0.00, 0.00, 0.00, 0.00, 1, 1,  9,  38.3982219, -78.0640582,   127.0, 2023, 10, 15, 17, 48, 43,        9,       12, 183,  43,   1.6,   1.0,   1.3,  0, 37,  0,  0,  0,  0,  0,  0,  0, 28,  0, 19,  0,  0,  0,  0,  0, 10,  0,  0, 37,  0, 28, 23, 21,  0,  0, 35,  0,  0, 32, 34
6, 10923, 3,N0AHK,     1.64, -72,   8, 3,   boost,   -7.54,  97421.00,  330.17,  145.40,  166.19, 25.2, 9.07, 0.00, 4.10,   6.88,  -7.21,  -2.69,-925.23, -11.17, -16.30,   0.15,   0.23,  -0.29,   5.00, 0.00, 0.00, 0.00, 0.00, 0.00, 1, 1,  9,  38.3982219, -78.0640582,   127.0, 2023, 10, 15, 17, 48, 43,        9,       12, 183,  43,   1.6,   1.0,   1.3,  0, 37,  0,  0,  0,  0,  0,  0,  0, 28,  0, 19,  0,  0,  0,  0,  0, 10,  0,  0, 37,  0, 28, 23, 21,  0,  0, 35,  0,  0, 32, 34
6, 10923, 3,N0AHK,     1.67, -73,   5, 3,   boost,   -7.54,  97421.00,  330.17,  145.40,  166.19, 25.2, 9.01, 0.00, 4.10,   6.88,  -7.21,  -2.69,-925.23, -11.17, -16.30,   0.15,   0.23,  -0.29,   5.00, 0.00, 0.00, 0.00, 0.00, 0.00, 1, 1,  9,  38.3982219, -78.0640582,   127.0, 2023, 10, 15, 17, 48, 43,        9,       12, 183,  43,   1.6,   1.0,   1.3,  0, 37,  0,  0,  0,  0,  0,  0,  0, 28,  0, 19,  0,  0,  0,  0,  0, 10,  0,  0, 37,  0, 28, 23, 21,  0,  0, 35,  0,  0, 32, 34
6, 10923, 3,N0AHK,     1.75, -75,   7, 3,   boost,  -14.58,  97414.00,  330.77,  146.01,  164.97, 25.2, 9.01, 0.00, 4.10,  -5.35,  -3.26,   0.98,-965.76, -17.82, -30.21,   0.14,   0.08,   0.13,   8.00, 0.00, 0.00, 0.00, 0.00, 0.00, 1, 1,  9,  38.3982219, -78.0640582,   127.0, 2023, 10, 15, 17, 48, 43,        9,       12, 183,  43,   1.6,   1.0,   1.3,  0, 37,  0,  0,  0,  0,  0,  0,  0, 28,  0, 19,  0,  0,  0,  0,  0, 10,  0,  0, 37,  0, 28, 23, 21,  0,  0, 35,  0,  0, 32, 34
6, 10923, 3,N0AHK,     1.78, -73,   8, 4,    fast,  -14.58,  97414.00,  330.77,  146.01,  164.97, 25.2, 9.07, 0.00, 4.10,  -5.35,  -3.26,   0.98,-965.76, -17.82, -30.21,   0.14,   0.08,   0.13,   8.00, 0.00, 0.00, 0.00, 0.00, 0.00, 1, 1,  9,  38.3982219, -78.0640582,   127.0, 2023, 10, 15, 17, 48, 43,        9,       12, 183,  43,   1.6,   1.0,   1.3,  0, 37,  0,  0,  0,  0,  0,  0,  0, 28,  0, 19,  0,  0,  0,  0,  0, 10,  0,  0, 37,  0, 28, 23, 21,  0,  0, 35,  0,  0, 32, 34
6, 10923, 3,N0AHK,     1.86, -71,   5, 4,    fast,  -16.09,  97161.00,  352.53,  167.77,  163.29, 25.2, 9.07, 0.00, 4.10,  -5.89,  -4.23,   2.79,-974.73,  -1.22, -19.23,   0.14,  -0.27,  -0.16,   9.00, 0.00, 0.00, 0.00, 0.00, 0.00, 1, 1,  9,  38.3982219, -78.0640582,   127.0, 2023, 10, 15, 17, 48, 43,        9,       12, 183,  43,   1.6,   1.0,   1.3,  0, 37,  0,  0,  0,  0,  0,  0,  0, 28,  0, 19,  0,  0,  0,  0,  0, 10,  0,  0, 37,  0, 28, 23, 21,  0,  0, 35,  0,  0, 32, 34
6, 10923, 3,N0AHK,     1.89, -70,  16, 5,   coast,  -16.09,  97161.00,  352.53,  167.77,  163.29, 25.2, 9.01, 0.00, 4.10,  -5.89,  -4.23,   2.79,-974.73,  -1.22, -19.23,   0.14,  -0.27,  -0.16,   9.00, 0.00, 0.00, 0.00, 0.00, 0.00, 1, 1,  9,  38.3982219, -78.0640582,   127.0, 2023, 10, 15, 17, 48, 43,        9,       12, 183,  43,   1.6,   1.0,   1.3,  0, 37,  0,  0,  0,  0,  0,  0,  0, 28,  0, 19,  0,  0,  0,  0,  0, 10,  0,  0, 37,  0, 28, 23, 21,  0,  0, 35,  0,  0, 32, 34
6, 10923, 3,N0AHK,     1.97, -71,   7, 5,   coast,  -15.59,  96888.00,  376.07,  191.31,  161.56, 25.2, 9.01, 0.00, 4.10,  -6.57,  -5.76,   2.86,-969.30,  -0.18, -11.54,   0.14,   0.10,  -0.42,   8.00, 0.00, 0.00, 0.00, 0.00, 0.00, 1, 1,  9,  38.3982219, -78.0640582,   127.0, 2023, 10, 15, 17, 48, 43,        9,       12, 183,  43,   1.6,   1.0,   1.3,  0, 37,  0,  0,  0,  0,  0,  0,  0, 28,  0, 19,  0,  0,  0,  0,  0, 10,  0,  0, 37,  0, 28, 23, 21,  0,  0, 35,  0,  0, 32, 34
6, 10923, 3,N0AHK,     2.00, -71,   7, 5,   coast,  -15.59,  96888.00,  376.07,  191.31,  161.56, 25.2, 9.01, 0.00, 4.10,  -6.57,  -5.76,   2.86,-969.30,  -0.18, -11.54,   0.14,   0.10,  -0.42,   8.00, 0.00, 0.00, 0.00, 0.00, 0.00, 1, 1,  9,  38.3982219, -78.0640582,   127.0, 2023, 10, 15, 17, 48, 43,        9,       12, 183,  43,   1.6,   1.0,   1.3,  0, 37,  0,  0,  0,  0,  0,  0,  0, 28,  0, 19,  0,  0,  0,  0,  0, 10,  0,  0, 37,  0, 28, 23, 21,  0,  0, 35,  0,  0, 32, 34
6, 10923, 3,N0AHK,     2.08, -70,   6, 5,   coast,  -16.60,  96726.00,  390.06,  205.30,  159.79, 25.2, 9.01, 0.00, 4.10,  -6.36,  -4.97,   4.12,-965.76, -13.12,  -6.53,   0.15,   0.24,   0.02,   8.00, 0.00, 0.00, 0.00, 0.00, 0.00, 1, 1,  9,  38.3982219, -78.0640582,   127.0, 2023, 10, 15, 17, 48, 43,        9,       12, 183,  43,   1.6,   1.0,   1.3,  0, 37,  0,  0,  0,  0,  0,  0,  0, 28,  0, 19,  0,  0,  0,  0,  0, 10,  0,  0, 37,  0, 28, 23, 21,  0,  0, 35,  0,  0, 32, 34
6, 10923, 3,N0AHK,     2.10, -79,   4, 5,   coast,  -16.60,  96726.00,  390.06,  205.30,  159.79, 25.2, 9.01, 0.00, 4.10,  -6.36,  -4.97,   4.12,-965.76, -13.12,  -6.53,   0.15,   0.24,   0.02,   8.00, 0.00, 0.00, 0.00, 0.00, 0.00, 1, 1,  7,  38.3982799, -78.0643398,   176.0, 2023, 10, 15, 17, 48, 44,       25,       62, 265,  66,   2.0,   1.3,   1.5,  0, 37,  0,  0,  0,  0,  0,  0,  0, 28,  0, 19,  0,  0,  0,  0,  0, 10,  0,  0, 37,  0, 28, 23, 21,  0,  0, 35,  0,  0, 32, 34
6, 10923, 3,N0AHK,     2.11, -69,  10, 5,   coast,  -16.60,  96726.00,  390.06,  205.30,  159.79, 25.2, 9.07, 0.00, 4.10,  -6.36,  -4.97,   4.12,-965.76, -13.12,  -6.53,   0.15,   0.24,   0.02,   8.00, 0.00, 0.00, 0.00, 0.00, 0.00, 1, 1,  7,  38.3982799, -78.0643398,   176.0, 2023, 10, 15, 17, 48, 44,       25,       62, 265,  66,   2.0,   1.3,   1.5,  0, 22,  0,  0,  0,  0,  0,  0,  0, 16,  0, 17,  0,  0,  0,  0,  0, 16,  0,  0,  0,  0, 16, 21, 18,  0,  0, 25,  0,  0, 25, 17
6, 10923, 3,N0AHK,     2.11, -69,   6, 5,   coast,  -16.60,  96726.00,  390.06,  205.30,  159.79, 25.2, 9.07, 0.00, 4.10,  -6.36,  -4.97,   4.12,-965.76, -13.12,  -6.53,   0.15,   0.24,   0.02,   8.00, 0.00, 0.00, 0.00, 0.00, 0.00, 1, 1,  7,  38.3982799, -78.0643398,   176.0, 2023, 10, 15, 17, 48, 44,       25,       62, 265,  66,   2.0,   1.3,   1.5,  0, 22,  0,  0,  0,  0,  0,  0,  0, 16,  0, 17,  0,  0,  0,  0,  0, 16,  0,  0,  0,  0, 16, 21, 18,  0,  0, 25,  0,  0, 25, 17
6, 10923, 3,N0AHK,     2.19, -69,   7, 5,   coast,  -16.09,  96531.00,  406.93,  222.17,  158.00, 25.2, 9.07, 0.00, 4.10,  -6.48,  -7.96,   3.85,-960.33,  -6.41, -11.35,   0.14,  -0.21,   0.03,   9.00, 0.00, 0.00, 0.00, 0.00, 0.00, 1, 1,  7,  38.3982799, -78.0643398,   176.0, 2023, 10, 15, 17, 48, 44,       25,       62, 265,  66,   2.0,   1.3,   1.5,  0, 22,  0,  0,  0,  0,  0,  0,  0, 16,  0, 17,  0,  0,  0,  0,  0, 16,  0,  0,  0,  0, 16, 21, 18,  0,  0, 25,  0,  0, 25, 17
6, 10923, 3,N0AHK,     2.22, -70,   7, 5,   coast,  -16.09,  96531.00,  406.93,  222.17,  158.00, 25.2, 9.07, 0.00, 4.10,  -6.48,  -7.96,   3.85,-960.33,  -6.41, -11.35,   0.14,  -0.21,   0.03,   9.00, 0.00, 0.00, 0.00, 0.00, 0.00, 1, 1,  7,  38.3982799, -78.0643398,   176.0, 2023, 10, 15, 17, 48, 44,       25,       62, 265,  66,   2.0,   1.3,   1.5,  0, 22,  0,  0,  0,  0,  0,  0,  0, 16,  0, 17,  0,  0,  0,  0,  0, 16,  0,  0,  0,  0, 16, 21, 18,  0,  0, 25,  0,  0, 25, 17
6, 10923, 3,N0AHK,     2.30, -72,   8, 5,   coast,  -16.60,  96366.00,  421.23,  236.46,  156.21, 25.2, 9.07, 0.00, 4.10,  -6.10,  -6.05,   2.92,-953.43, -19.35,  -6.59,   0.14,  -0.11,  -0.40,   8.00, 0.00, 0.00, 0.00, 0.00, 0.00, 1, 1,  7,  38.3982799, -78.0643398,   176.0, 2023, 10, 15, 17, 48, 44,       25,       62, 265,  66,   2.0,   1.3,   1.5,  0, 22,  0,  0,  0,  0,  0,  0,  0, 16,  0, 17,  0,  0,  0,  0,  0, 16,  0,  0,  0,  0, 16, 21, 18,  0,  0, 25,  0,  0, 25, 17
6, 10923, 3,N0AHK,     2.33, -74,   7, 5,   coast,  -16.60,  96366.00,  421.23,  236.46,  156.21, 25.2, 9.07, 0.00, 4.10,  -6.10,  -6.05,   2.92,-953.43, -19.35,  -6.59,   0.14,  -0.11,  -0.40,   8.00, 0.00, 0.00, 0.00, 0.00, 0.00, 1, 1,  7,  38.3982799, -78.0643398,   176.0, 2023, 10, 15, 17, 48, 44,       25,       62, 265,  66,   2.0,   1.3,   1.5,  0, 22,  0,  0,  0,  0,  0,  0,  0, 16,  0, 17,  0,  0,  0,  0,  0, 16,  0,  0,  0,  0, 16, 21, 18,  0,  0, 25,  0,  0, 25, 17
6, 10923, 3,N0AHK,     2.41, -76,   7, 5,   coast,  -15.09,  96166.00,  438.58,  253.82,  154.48, 25.2, 9.07, 0.00, 4.10,  -6.10,  -7.41,   3.60,-951.48, -21.00, -15.56,   0.15,   0.28,  -0.17,   7.00, 0.00, 0.00, 0.00, 0.00, 0.00, 1, 1,  7,  38.3982799, -78.0643398,   176.0, 2023, 10, 15, 17, 48, 44,       25,       62, 265,  66,   2.0,   1.3,   1.5,  0, 22,  0,  0,  0,  0,  0,  0,  0, 16,  0, 17,  0,  0,  0,  0,  0, 16,  0,  0,  0,  0, 16, 21, 18,  0,  0, 25,  0,  0, 25, 17
6, 10923, 3,N0AHK,     2.44, -76,   7, 5,   coast,  -15.09,  96166.00,  438.58,  253.82,  154.48, 25.2, 9.01, 0.00, 4.10,  -6.10,  -7.41,   3.60,-951.48, -21.00, -15.56,   0.15,   0.28,  -0.17,   7.00, 0.00, 0.00, 0.00, 0.00, 0.00, 1, 1,  7,  38.3982799, -78.0643398,   176.0, 2023, 10, 15, 17, 48, 44,       25,       62, 265,  66,   2.0,   1.3,   1.5,  0, 22,  0,  0,  0,  0,  0,  0,  0, 16,  0, 17,  0,  0,  0,  0,  0, 16,  0,  0,  0,  0, 16, 21, 18,  0,  0, 25,  0,  0, 25, 17
6, 10923, 3,N0AHK,     2.52, -75,   6, 5,   coast,  -16.60,  96010.00,  452.14,  267.37,  152.74, 25.2, 9.01, 0.00, 4.10,  -5.63,  -8.90,   2.68,-947.45, -20.45, -13.31,   0.14,  -0.04,   0.14,   9.00, 0.00, 0.00, 0.00, 0.00, 0.00, 1, 1,  7,  38.3982799, -78.0643398,   176.0, 2023, 10, 15, 17, 48, 44,       25,       62, 265,  66,   2.0,   1.3,   1.5,  0, 22,  0,  0,  0,  0,  0,  0,  0, 16,  0, 17,  0,  0,  0,  0,  0, 16,  0,  0,  0,  0, 16, 21, 18,  0,  0, 25,  0,  0, 25, 17
6, 10923, 3,N0AHK,     2.55, -73,   7, 5,   coast,  -16.60,  96010.00,  452.14,  267.37,  152.74, 25.2, 9.07, 0.00, 4.10,  -5.63,  -8.90,   2.68,-947.45, -20.45, -13.31,   0.14,  -0.04,   0.14,   9.00, 0.00, 0.00, 0.00, 0.00, 0.00, 1, 1,  7,  38.3982799, -78.0643398,   176.0, 2023, 10, 15, 17, 48, 44,       25,       62, 265,  66,   2.0,   1.3,   1.5,  0, 22,  0,  0,  0,  0,  0,  0,  0, 16,  0, 17,  0,  0,  0,  0,  0, 16,  0,  0,  0,  0, 16, 21, 18,  0,  0, 25,  0,  0, 25, 17
6, 10923, 3,N0AHK,     2.63, -76,   6, 5,   coast,  -16.09,  95817.00,  468.93,  284.17,  150.95, 25.2, 9.07, 0.00, 4.10,  -5.47,  -7.55,   1.65,-939.21, -22.40, -10.68,   0.13,  -0.26,  -0.25,  10.00, 0.00, 0.00, 0.00, 0.00, 0.00, 1, 1,  7,  38.3982799, -78.0643398,   176.0, 2023, 10, 15, 17, 48, 44,       25,       62, 265,  66,   2.0,   1.3,   1.5,  0, 22,  0,  0,  0,  0,  0,  0,  0, 16,  0, 17,  0,  0,  0,  0,  0, 16,  0,  0,  0,  0, 16, 21, 18,  0,  0, 25,  0,  0, 25, 17
6, 10923, 3,N0AHK,     2.66, -75,   8, 5,   coast,  -16.09,  95817.00,  468.93,  284.17,  150.95, 25.2, 9.01, 0.00, 4.09,  -5.47,  -7.55,   1.65,-939.21, -22.40, -10.68,   0.13,  -0.26,  -0.25,  10.00, 0.00, 0.00, 0.00, 0.00, 0.00, 1, 1,  7,  38.3982799, -78.0643398,   176.0, 2023, 10, 15, 17, 48, 44,       25,       62, 265,  66,   2.0,   1.3,   1.5,  0, 22,  0,  0,  0,  0,  0,  0,  0, 16,  0, 17,  0,  0,  0,  0,  0, 16,  0,  0,  0,  0, 16, 21, 18,  0,  0, 25,  0,  0, 25, 17
6, 10923, 3,N0AHK,     2.74, -79,   5, 5,   coast,  -16.60,  95677.00,  481.13,  296.37,  149.16, 25.2, 9.01, 0.00, 4.09,  -5.50,  -7.19,   2.97,-928.59, -17.94, -14.53,   0.15,   0.16,  -0.38,   7.00, 0.00, 0.00, 0.00, 0.00, 0.00, 1, 1,  7,  38.3982799, -78.0643398,   176.0, 2023, 10, 15, 17, 48, 44,       25,       62, 265,  66,   2.0,   1.3,   1.5,  0, 22,  0,  0,  0,  0,  0,  0,  0, 16,  0, 17,  0,  0,  0,  0,  0, 16,  0,  0,  0,  0, 16, 21, 18,  0,  0, 25,  0,  0, 25, 17
6, 10923, 3,N0AHK,     2.77, -79,   6, 5,   coast,  -16.60,  95677.00,  481.13,  296.37,  149.16, 25.2, 9.07, 0.00, 4.09,  -5.50,  -7.19,   2.97,-928.59, -17.94, -14.53,   0.15,   0.16,  -0.38,   7.00, 0.00, 0.00, 0.00, 0.00, 0.00, 1, 1,  7,  38.3982799, -78.0643398,   176.0, 2023, 10, 15, 17, 48, 44,       25,       62, 265,  66,   2.0,   1.3,   1.5,  0, 22,  0,  0,  0,  0,  0,  0,  0, 16,  0, 17,  0,  0,  0,  0,  0, 16,  0,  0,  0,  0, 16, 21, 18,  0,  0, 25,  0,  0, 25, 17
6, 10923, 3,N0AHK,     2.85, -78,   7, 5,   coast,  -17.10,  95497.00,  496.84,  312.08,  147.32, 25.2, 9.07, 0.00, 4.09,  -5.19,  -9.14,   0.25,-915.71, -17.40, -23.50,   0.14,   0.21,   0.06,   8.00, 0.00, 0.00, 0.00, 0.00, 0.00, 1, 1,  7,  38.3982799, -78.0643398,   176.0, 2023, 10, 15, 17, 48, 44,       25,       62, 265,  66,   2.0,   1.3,   1.5,  0, 22,  0,  0,  0,  0,  0,  0,  0, 16,  0, 17,  0,  0,  0,  0,  0, 16,  0,  0,  0,  0, 16, 21, 18,  0,  0, 25,  0,  0, 25, 17
6, 10923, 3,N0AHK,     2.88, -78,   5, 5,   coast,  -17.10,  95497.00,  496.84,  312.08,  147.32, 25.2, 9.07, 0.00, 4.10,  -5.19,  -9.14,   0.25,-915.71, -17.40, -23.50,   0.14,   0.21,   0.06,   8.00, 0.01, 0.00, 0.00, 0.00, 0.00, 1, 1,  7,  38.3982799, -78.0643398,   176.0, 2023, 10, 15, 17, 48, 44,       25,       62, 265,  66,   2.0,   1.3,   1.5,  0, 22,  0,  0,  0,  0,  0,  0,  0, 16,  0, 17,  0,  0,  0,  0,  0, 16,  0,  0,  0,  0, 16, 21, 18,  0,  0, 25,  0,  0, 25, 17
6, 10923, 3,N0AHK,     2.96, -77,   5, 5,   coast,  -15.09,  95337.00,  510.82,  326.06,  145.55, 25.2, 9.07, 0.00, 4.10,  -4.97,  -7.05,   0.32,-901.73, -18.25, -16.54,   0.13,  -0.22,   0.03,  11.00, 0.01, 0.00, 0.00, 0.00, 0.00, 1, 1,  7,  38.3982799, -78.0643398,   176.0, 2023, 10, 15, 17, 48, 44,       25,       62, 265,  66,   2.0,   1.3,   1.5,  0, 22,  0,  0,  0,  0,  0,  0,  0, 16,  0, 17,  0,  0,  0,  0,  0, 16,  0,  0,  0,  0, 16, 21, 18,  0,  0, 25,  0,  0, 25, 17
6, 10923, 3,N0AHK,     2.99, -78,   7, 5,   coast,  -15.09,  95337.00,  510.82,  326.06,  145.55, 25.2, 9.01, 0.00, 4.10,  -4.97,  -7.05,   0.32,-901.73, -18.25, -16.54,   0.13,  -0.22,   0.03,  11.00, 0.01, 0.00, 0.00, 0.00, 0.00, 1, 1,  7,  38.3982799, -78.0643398,   176.0, 2023, 10, 15, 17, 48, 44,       25,       62, 265,  66,   2.0,   1.3,   1.5,  0, 22,  0,  0,  0,  0,  0,  0,  0, 16,  0, 17,  0,  0,  0,  0,  0, 16,  0,  0,  0,  0, 16, 21, 18,  0,  0, 25,  0,  0, 25, 17
6, 10923, 3,N0AHK,     3.07, -78,   8, 5,   coast,  -15.59,  95153.00,  526.93,  342.16,  143.88, 25.2, 9.01, 0.00, 4.10,  -4.88,  -6.95,   1.57,-892.70, -28.99, -15.08,   0.14,  -0.11,  -0.40,   9.00, 0.01, 0.00, 0.00, 0.00, 0.00, 1, 1,  7,  38.3982799, -78.0643398,   176.0, 2023, 10, 15, 17, 48, 44,       25,       62, 265,  66,   2.0,   1.3,   1.5,  0, 22,  0,  0,  0,  0,  0,  0,  0, 16,  0, 17,  0,  0,  0,  0,  0, 16,  0,  0,  0,  0, 16, 21, 18,  0,  0, 25,  0,  0, 25, 17
6, 10923, 3,N0AHK,     3.10, -80,   6, 5,   coast,  -15.59,  95153.00,  526.93,  342.16,  143.88, 25.2, 9.07, 0.00, 4.10,  -4.88,  -6.95,   1.57,-892.70, -28.99, -15.08,   0.14,  -0.11,  -0.40,   9.00, 0.00, 0.00, 0.00, 0.00, 0.00, 1, 1,  7,  38.3982799, -78.0643398,   176.0, 2023, 10, 15, 17, 48, 44,       25,       62, 265,  66,   2.0,   1.3,   1.5,  0, 22,  0,  0,  0,  0,  0,  0,  0, 16,  0, 17,  0,  0,  0,  0,  0, 16,  0,  0,  0,  0, 16, 21, 18,  0,  0, 25,  0,  0, 25, 17
6, 10923, 3,N0AHK,     3.18, -79,   5, 5,   coast,  -17.60,  95024.00,  538.23,  353.47,  142.06, 25.2, 9.07, 0.00, 4.10,  -4.82,  -7.96,   2.26,-876.28, -15.63, -18.62,   0.15,   0.27,  -0.23,   7.00, 0.00, 0.00, 0.00, 0.00, 0.00, 1, 1,  7,  38.3982799, -78.0643398,   176.0, 2023, 10, 15, 17, 48, 44,       25,       62, 265,  66,   2.0,   1.3,   1.5,  0, 22,  0,  0,  0,  0,  0,  0,  0, 16,  0, 17,  0,  0,  0,  0,  0, 16,  0,  0,  0,  0, 16, 21, 18,  0,  0, 25,  0,  0, 25, 17
6, 10923, 3,N0AHK,     3.21, -78,   9, 5,   coast,  -17.60,  95024.00,  538.23,  353.47,  142.06, 25.2, 9.01, 0.00, 4.10,  -4.82,  -7.96,   2.26,-876.28, -15.63, -18.62,   0.15,   0.27,  -0.23,   7.00, 0.00, 0.00, 0.00, 0.00, 0.00, 1, 1,  7,  38.3982799, -78.0643398,   176.0, 2023, 10, 15, 17, 48, 44,       25,       62, 265,  66,   2.0,   1.3,   1.5,  0, 24,  0,  0,  0,  0,  0,  0,  0, 13,  0, 15,  0,  0,  0,  0,  0, 12,  0,  0,  0,  0, 13, 19, 16,  0,  0, 32,  0,  0, 32,  0
6, 10923, 3,N0AHK,     3.21, -78,  10, 5,   coast,  -17.60,  95024.00,  538.23,  353.47,  142.06, 25.2, 9.01, 0.00, 4.10,  -4.82,  -7.96,   2.26,-876.28, -15.63, -18.62,   0.15,   0.27,  -0.23,   7.00, 0.00, 0.00, 0.00, 0.00, 0.00, 1, 1,  7,  38.3982799, -78.0643398,   176.0, 2023, 10, 15, 17, 48, 44,       25,       62, 265,  66,   2.0,   1.3,   1.5,  0, 24,  0,  0,  0,  0,  0,  0,  0, 13,  0, 15,  0,  0,  0,  0,  0, 12,  0,  0,  0,  0, 13, 19, 16,  0,  0, 32,  0,  0, 32,  0
6, 10923, 3,N0AHK,     3.29, -78,   6, 5,   coast,  -15.59,  94840.00,  554.38,  369.62,  140.24, 25.1, 9.01, 0.00, 4.10,  -4.58,  -7.67,   0.90,-875.31, -24.35, -24.96,   0.14,   0.07,   0.14,  10.00, 0.00, 0.00, 0.00, 0.00, 0.00, 1, 1,  7,  38.3982799, -78.0643398,   176.0, 2023, 10, 15, 17, 48, 44,       25,       62, 265,  66,   2.0,   1.3,   1.5,  0, 24,  0,  0,  0,  0,  0,  0,  0, 13,  0, 15,  0,  0,  0,  0,  0, 12,  0,  0,  0,  0, 13, 19, 16,  0,  0, 32,  0,  0, 32,  0
6, 10923, 3,N0AHK,     3.32, -78,   6, 5,   coast,  -15.59,  94840.00,  554.38,  369.62,  140.24, 25.1, 9.07, 0.00, 4.10,  -4.58,  -7.67,   0.90,-875.31, -24.35, -24.96,   0.14,   0.07,   0.14,  10.00, 0.00, 0.00, 0.00, 0.00, 0.00, 1, 1,  7,  38.3982799, -78.0643398,   176.0, 2023, 10, 15, 17, 48, 44,       25,       62, 265,  66,   2.0,   1.3,   1.5,  0, 24,  0,  0,  0,  0,  0,  0,  0, 13,  0, 15,  0,  0,  0,  0,  0, 12,  0,  0,  0,  0, 13, 19, 16,  0,  0, 32,  0,  0, 32,  0
6, 10923, 3,N0AHK,     3.40, -77,   6, 5,   coast,  -13.58,  94702.00,  566.51,  381.74,  138.65, 25.1, 9.07, 0.00, 4.10,  -4.27,  -6.75,   1.03,-864.44, -23.74, -13.49,   0.12,  -0.28,  -0.10,  12.00, 0.00, 0.00, 0.00, 0.00, 0.00, 1, 1,  7,  38.3982799, -78.0643398,   176.0, 2023, 10, 15, 17, 48, 44,       25,       62, 265,  66,   2.0,   1.3,   1.5,  0, 24,  0,  0,  0,  0,  0,  0,  0, 13,  0, 15,  0,  0,  0,  0,  0, 12,  0,  0,  0,  0, 13, 19, 16,  0,  0, 32,  0,  0, 32,  0
6, 10923, 3,N0AHK,     3.43, -78,   9, 5,   coast,  -13.58,  94702.00,  566.51,  381.74,  138.65, 25.1, 9.07, 0.00, 4.10,  -4.27,  -6.75,   1.03,-864.44, -23.74, -13.49,   0.12,  -0.28,  -0.10,  12.00, 0.00, 0.00, 0.00, 0.00, 0.00, 1, 1,  7,  38.3982799, -78.0643398,   176.0, 2023, 10, 15, 17, 48, 44,       25,       62, 265,  66,   2.0,   1.3,   1.5,  0, 24,  0,  0,  0,  0,  0,  0,  0, 13,  0, 15,  0,  0,  0,  0,  0, 12,  0,  0,  0,  0, 13, 19, 16,  0,  0, 32,  0,  0, 32,  0
6, 10923, 3,N0AHK,     4.09, -87,  10, 5,   coast,  -13.58,  94702.00,  566.51,  381.74,  138.65, 25.1, 9.07, 0.00, 4.10,  -4.27,  -6.75,   1.03,-864.44, -23.74, -13.49,   0.12,  -0.28,  -0.10,  12.00, 0.00, 0.00, 0.00, 0.00, 0.00, 1, 1,  5,  38.3986276, -78.0650596,   369.0, 2023, 10, 15, 17, 48, 46,       95,      267, 293,  69,   2.5,   1.3,   2.1,  0, 24,  0,  0,  0,  0,  0,  0,  0, 13,  0, 15,  0,  0,  0,  0,  0, 12,  0,  0,  0,  0, 13, 19, 16,  0,  0, 32,  0,  0, 32,  0
6, 10923, 3,N0AHK,     4.20, -82,  10, 5,   coast,  -14.08,  93643.00,  660.04,  475.28,  127.65, 25.1, 9.07, 0.00, 4.10,  -3.67,  -6.06,   3.81,-772.09, -23.13,  -8.97,   0.14,  -0.07,   0.14,  11.00, 0.00, 0.00, 0.00, 0.00, 0.00, 1, 1,  5,  38.3986276, -78.0650596,   369.0, 2023, 10, 15, 17, 48, 46,       95,      267, 293,  69,   2.5,   1.3,   2.1,  0, 24,  0,  0,  0,  0,  0,  0,  0, 13,  0, 15,  0,  0,  0,  0,  0, 12,  0,  0,  0,  0, 13, 19, 16,  0,  0, 32,  0,  0, 32,  0
6, 10923, 3,N0AHK,     4.23, -84,   6, 5,   coast,  -14.08,  93643.00,  660.04,  475.28,  127.65, 25.1, 9.07, 0.00, 4.09,  -3.67,  -6.06,   3.81,-772.09, -23.13,  -8.97,   0.14,  -0.07,   0.14,  11.00, 0.00, 0.00, 0.00, 0.00, 0.00, 1, 1,  5,  38.3986276, -78.0650596,   369.0, 2023, 10, 15, 17, 48, 46,       95,      267, 293,  69,   2.5,   1.3,   2.1,  0, 24,  0,  0,  0,  0,  0,  0,  0, 13,  0, 15,  0,  0,  0,  0,  0, 12,  0,  0,  0,  0, 13, 19, 16,  0,  0, 32,  0,  0, 32,  0
6, 10923, 3,N0AHK,     4.30, -85,   7, 5,   coast,  -12.57,  93515.00,  671.41,  486.64,  126.32, 25.1, 9.07, 0.00, 4.09,  -3.41,  -6.34,   2.26,-764.22, -19.35,  -2.87,   0.12,  -0.29,  -0.17,  13.00, 0.00, 0.00, 0.00, 0.00, 0.00, 1, 1,  5,  38.3986276, -78.0650596,   369.0, 2023, 10, 15, 17, 48, 46,       95,      267, 293,  69,   2.5,   1.3,   2.1,  0, 24,  0,  0,  0,  0,  0,  0,  0, 13,  0, 15,  0,  0,  0,  0,  0, 12,  0,  0,  0,  0, 13, 19, 16,  0,  0, 32,  0,  0, 32,  0
6, 10923, 3,N0AHK,     4.33, -87,   8, 5,   coast,  -12.57,  93515.00,  671.41,  486.64,  126.32, 25.1, 9.07, 0.00, 4.10,  -3.41,  -6.34,   2.26,-764.22, -19.35,  -2.87,   0.12,  -0.29,  -0.17,  13.00, 0.00, 0.00, 0.00, 0.00, 0.00, 1, 1,  5,  38.3986276, -78.0650596,   369.0, 2023, 10, 15, 17, 48, 46,       95,      267, 293,  69,   2.5,   1.3,   2.1,  0, 24,  0,  0,  0,  0,  0,  0,  0, 13,  0, 15,  0,  0,  0,  0,  0, 12,  0,  0,  0,  0, 13, 19, 16,  0,  0, 32,  0,  0, 32,  0
6, 10923, 3,N0AHK,     4.41, -90,   6, 5,   coast,  -14.58,  93358.00,  685.36,  500.60,  124.84, 25.1, 9.07, 0.00, 4.10,  -3.49,  -5.76,   2.93,-759.28, -27.28, -16.72,   0.13,  -0.01,  -0.44,  11.00, 0.00, 0.00, 0.00, 0.00, 0.00, 1, 1,  5,  38.3986276, -78.0650596,   369.0, 2023, 10, 15, 17, 48, 46,       95,      267, 293,  69,   2.5,   1.3,   2.1,  0, 24,  0,  0,  0,  0,  0,  0,  0, 13,  0, 15,  0,  0,  0,  0,  0, 12,  0,  0,  0,  0, 13, 19, 16,  0,  0, 32,  0,  0, 32,  0
6, 10923, 3,N0AHK,     4.44, -87,   7, 5,   coast,  -14.58,  93358.00,  685.36,  500.60,  124.84, 25.1, 9.01, 0.00, 4.10,  -3.49,  -5.76,   2.93,-759.28, -27.28, -16.72,   0.13,  -0.01,  -0.44,  11.00, 0.00, 0.00, 0.00, 0.00, 0.00, 1, 1,  5,  38.3986276, -78.0650596,   369.0, 2023, 10, 15, 17, 48, 46,       95,      267, 293,  69,   2.5,   1.3,   2.1,  0, 24,  0,  0,  0,  0,  0,  0,  0, 13,  0, 15,  0,  0,  0,  0,  0, 12,  0,  0,  0,  0, 13, 19, 16,  0,  0, 32,  0,  0, 32,  0
6, 10923, 3,N0AHK,     4.52, -86,   4, 5,   coast,  -15.09,  93231.00,  696.67,  511.90,  123.21, 25.1, 9.01, 0.00, 4.10,  -3.36,  -6.37,   0.42,-756.53, -24.78, -10.07,   0.15,   0.28,  -0.19,   8.00, 0.00, 0.00, 0.00, 0.00, 0.00, 1, 1,  5,  38.3986276, -78.0650596,   369.0, 2023, 10, 15, 17, 48, 46,       95,      267, 293,  69,   2.5,   1.3,   2.1,  0, 24,  0,  0,  0,  0,  0,  0,  0, 13,  0, 15,  0,  0,  0,  0,  0, 12,  0,  0,  0,  0, 13, 19, 16,  0,  0, 32,  0,  0, 32,  0
6, 10923, 3,N0AHK,     4.55, -86,   7, 5,   coast,  -15.09,  93231.00,  696.67,  511.90,  123.21, 25.1, 9.01, 0.00, 4.10,  -3.36,  -6.37,   0.42,-756.53, -24.78, -10.07,   0.15,   0.28,  -0.19,   8.00, 0.00, 0.00, 0.00, 0.00, 0.00, 1, 1,  5,  38.3986276, -78.0650596,   369.0, 2023, 10, 15, 17, 48, 46,       95,      267, 293,  69,   2.5,   1.3,   2.1,  0, 24,  0,  0,  0,  0,  0,  0,  0, 13,  0, 15,  0,  0,  0,  0,  0, 12,  0,  0,  0,  0, 13, 19, 16,  0,  0, 32,  0,  0, 32,  0
6, 10923, 3,N0AHK,     4.63, -84,   8, 5,   coast,  -13.08,  93092.00,  709.05,  524.29,  121.67, 25.1, 9.01, 0.00, 4.10,  -3.11,  -6.56,  -0.10,-746.22, -30.09,  -9.64,   0.13,   0.08,   0.14,  10.00, 0.00, 0.00, 0.00, 0.00, 0.00, 1, 1,  5,  38.3986276, -78.0650596,   369.0, 2023, 10, 15, 17, 48, 46,       95,      267, 293,  69,   2.5,   1.3,   2.1,  0, 24,  0,  0,  0,  0,  0,  0,  0, 13,  0, 15,  0,  0,  0,  0,  0, 12,  0,  0,  0,  0, 13, 19, 16,  0,  0, 32,  0,  0, 32,  0
6, 10923, 3,N0AHK,     4.66, -82,   6, 5,   coast,  -13.08,  93092.00,  709.05,  524.29,  121.67, 25.1, 9.07, 0.00, 4.10,  -3.11,  -6.56,  -0.10,-746.22, -30.09,  -9.64,   0.13,   0.08,   0.14,  10.00, 0.00, 0.00, 0.00, 0.00, 0.00, 1, 1,  5,  38.3986276, -78.0650596,   369.0, 2023, 10, 15, 17, 48, 46,       95,      267, 293,  69,   2.5,   1.3,   2.1,  0, 24,  0,  0,  0,  0,  0,  0,  0, 13,  0, 15,  0,  0,  0,  0,  0, 12,  0,  0,  0,  0, 13, 19, 16,  0,  0, 32,  0,  0, 32,  0
6, 10923, 3,N0AHK,     4.74, -82,   5, 5,   coast,  -13.08,  92967.00,  720.20,  535.44,  120.24, 25.1, 9.07, 0.00, 4.10,  -3.30,  -8.66,   1.37,-741.33, -14.65, -20.20,   0.12,  -0.26,  -0.03,  12.00, 0.00, 0.00, 0.00, 0.00, 0.00, 1, 1,  5,  38.3986276, -78.0650596,   369.0, 2023, 10, 15, 17, 48, 46,       95,      267, 293,  69,   2.5,   1.3,   2.1,  0, 24,  0,  0,  0,  0,  0,  0,  0, 13,  0, 15,  0,  0,  0,  0,  0, 12,  0,  0,  0,  0, 13, 19, 16,  0,  0, 32,  0,  0, 32,  0
6, 10923, 3,N0AHK,     4.77, -84,   6, 5,   coast,  -13.08,  92967.00,  720.20,  535.44,  120.24, 25.1, 9.01, 0.00, 4.10,  -3.30,  -8.66,   1.37,-741.33, -14.65, -20.20,   0.12,  -0.26,  -0.03,  12.00, 0.00, 0.00, 0.00, 0.00, 0.00, 1, 1,  5,  38.3986276, -78.0650596,   369.0, 2023, 10, 15, 17, 48, 46,       95,      267, 293,  69,   2.5,   1.3,   2.1,  0, 24,  0,  0,  0,  0,  0,  0,  0, 13,  0, 15,  0,  0,  0,  0,  0, 12,  0,  0,  0,  0, 13, 19, 16,  0,  0, 32,  0,  0, 32,  0
6, 10923, 3,N0AHK,     4.85, -89,   8, 5,   coast,  -13.08,  92831.00,  732.35,  547.58,  118.80, 25.1, 9.01, 0.00, 4.10,  -2.63,  -4.55,  -1.42,-724.06, -38.15,  -9.64,   0.14,  -0.16,  -0.38,  10.00, 0.00, 0.00, 0.00, 0.00, 0.00, 1, 1,  5,  38.3986276, -78.0650596,   369.0, 2023, 10, 15, 17, 48, 46,       95,      267, 293,  69,   2.5,   1.3,   2.1,  0, 24,  0,  0,  0,  0,  0,  0,  0, 13,  0, 15,  0,  0,  0,  0,  0, 12,  0,  0,  0,  0, 13, 19, 16,  0,  0, 32,  0,  0, 32,  0
6, 10923, 3,N0AHK,     4.88, -89,   7, 5,   coast,  -13.08,  92831.00,  732.35,  547.58,  118.80, 25.1, 9.07, 0.00, 4.10,  -2.63,  -4.55,  -1.42,-724.06, -38.15,  -9.64,   0.14,  -0.16,  -0.38,  10.00, 0.00, 0.00, 0.00, 0.00, 0.00, 1, 1,  5,  38.3986276, -78.0650596,   369.0, 2023, 10, 15, 17, 48, 46,       95,      267, 293,  69,   2.5,   1.3,   2.1,  0, 24,  0,  0,  0,  0,  0,  0,  0, 13,  0, 15,  0,  0,  0,  0,  0, 12,  0,  0,  0,  0, 13, 19, 16,  0,  0, 32,  0,  0, 32,  0
6, 10923, 3,N0AHK,     4.96, -87,   4, 5,   coast,  -14.08,  92720.00,  742.27,  557.51,  117.32, 25.1, 9.07, 0.00, 4.10,  -3.05,  -7.49,   0.69,-711.30,  -9.34, -16.24,   0.15,   0.20,  -0.34,   8.00, 0.00, 0.00, 0.00, 0.00, 0.00, 1, 1,  5,  38.3986276, -78.0650596,   369.0, 2023, 10, 15, 17, 48, 46,       95,      267, 293,  69,   2.5,   1.3,   2.1,  0, 24,  0,  0,  0,  0,  0,  0,  0, 13,  0, 15,  0,  0,  0,  0,  0, 12,  0,  0,  0,  0, 13, 19, 16,  0,  0, 32,  0,  0, 32,  0
6, 10923, 3,N0AHK,     4.99, -87,   7, 5,   coast,  -14.08,  92720.00,  742.27,  557.51,  117.32, 25.1, 9.07, 0.00, 4.10,  -3.05,  -7.49,   0.69,-711.30,  -9.34, -16.24,   0.15,   0.20,  -0.34,   8.00, 0.00, 0.00, 0.00, 0.00, 0.00, 1, 1,  5,  38.3986276, -78.0650596,   369.0, 2023, 10, 15, 17, 48, 46,       95,      267, 293,  69,   2.5,   1.3,   2.1,  0, 24,  0,  0,  0,  0,  0,  0,  0, 11,  0, 11,  0,  0,  0,  0,  0,  0,  0,  0, 27,  0, 16, 17, 33,  0,  0, 33,  0,  0, 32, 28
6, 10923, 3,N0AHK,     4.99, -87,   8, 5,   coast,  -14.08,  92720.00,  742.27,  557.51,  117.32, 25.1, 9.07, 0.00, 4.10,  -3.05,  -7.49,   0.69,-711.30,  -9.34, -16.24,   0.15,   0.20,  -0.34,   8.00, 0.00, 0.00, 0.00, 0.00, 0.00, 1, 1,  5,  38.3986276, -78.0650596,   369.0, 2023, 10, 15, 17, 48, 46,       95,      267, 293,  69,   2.5,   1.3,   2.1,  0, 24,  0,  0,  0,  0,  0,  0,  0, 11,  0, 11,  0,  0,  0,  0,  0,  0,  0,  0, 27,  0, 16, 17, 33,  0,  0, 33,  0,  0, 32, 28
6, 10923, 3,N0AHK,     5.07, -91,   6, 5,   coast,  -14.08,  92582.00,  754.62,  569.86,  115.77, 25.1, 9.07, 0.00, 4.10,  -2.87,  -3.66,   0.57,-705.63, -32.04, -23.80,   0.14,   0.24,   0.02,   9.00, 0.00, 0.00, 0.00, 0.00, 0.00, 1, 1,  5,  38.3986276, -78.0650596,   369.0, 2023, 10, 15, 17, 48, 46,       95,      267, 293,  69,   2.5,   1.3,   2.1,  0, 24,  0,  0,  0,  0,  0,  0,  0, 11,  0, 11,  0,  0,  0,  0,  0,  0,  0,  0, 27,  0, 16, 17, 33,  0,  0, 33,  0,  0, 32, 28
6, 10923, 3,N0AHK,     5.10, -91,   8, 5,   coast,  -14.08,  92582.00,  754.62,  569.86,  115.77, 25.1, 9.07, 0.00, 4.10,  -2.87,  -3.66,   0.57,-705.63, -32.04, -23.80,   0.14,   0.24,   0.02,   9.00, 0.00, 0.00, 0.00, 0.00, 0.00, 1, 1,  6,  38.3987590, -78.0652308,   487.0, 2023, 10, 15, 17, 48, 47,      115,      385, 296,  73,   2.5,   1.2,   2.2,  0, 24,  0,  0,  0,  0,  0,  0,  0, 11,  0, 11,  0,  0,  0,  0,  0,  0,  0,  0, 27,  0, 16, 17, 33,  0,  0, 33,  0,  0, 32, 28
6, 10923, 3,N0AHK,     5.10, -90,   8, 5,   coast,  -14.08,  92582.00,  754.62,  569.86,  115.77, 25.1, 9.07, 0.00, 4.10,  -2.87,  -3.66,   0.57,-705.63, -32.04, -23.80,   0.14,   0.24,   0.02,   9.00, 0.00, 0.00, 0.00, 0.00, 0.00, 1, 1,  6,  38.3987590, -78.0652308,   487.0, 2023, 10, 15, 17, 48, 47,      115,      385, 296,  73,   2.5,   1.2,   2.2,  0, 24,  0,  0,  0,  0,  0,  0,  0, 11,  0, 11,  0,  0,  0,  0,  0,  0,  0,  0, 27,  0, 16, 17, 33,  0,  0, 33,  0,  0, 32, 28
6, 10923, 3,N0AHK,     5.18, -87,   8, 5,   coast,  -13.08,  92474.00,  764.30,  579.53,  114.29, 25.1, 9.07, 0.00, 4.10,  -2.69,  -5.35,   0.39,-693.05, -17.27, -11.41,   0.12,  -0.10,   0.14,  12.00, 0.00, 0.00, 0.00, 0.00, 0.00, 1, 1,  6,  38.3987590, -78.0652308,   487.0, 2023, 10, 15, 17, 48, 47,      115,      385, 296,  73,   2.5,   1.2,   2.2,  0, 24,  0,  0,  0,  0,  0,  0,  0, 11,  0, 11,  0,  0,  0,  0,  0,  0,  0,  0, 27,  0, 16, 17, 33,  0,  0, 33,  0,  0, 32, 28
6, 10923, 3,N0AHK,     5.21, -86,   7, 5,   coast,  -13.08,  92474.00,  764.30,  579.53,  114.29, 25.1, 9.07, 0.00, 4.10,  -2.69,  -5.35,   0.39,-693.05, -17.27, -11.41,   0.12,  -0.10,   0.14,  12.00, 0.00, 0.00, 0.00, 0.00, 0.00, 1, 1,  6,  38.3987590, -78.0652308,   487.0, 2023, 10, 15, 17, 48, 47,      115,      385, 296,  73,   2.5,   1.2,   2.2,  0, 24,  0,  0,  0,  0,  0,  0,  0, 11,  0, 11,  0,  0,  0,  0,  0,  0,  0,  0, 27,  0, 16, 17, 33,  0,  0, 33,  0,  0, 32, 28
6, 10923, 3,N0AHK,     5.29, -89,   5, 5,   coast,  -14.58,  92347.00,  775.69,  590.92,  112.77, 25.1, 9.07, 0.00, 4.10,  -2.74,  -4.42,   1.54,-686.46, -24.11, -17.46,   0.12,  -0.29,  -0.18,  13.00, 0.00, 0.00, 0.00, 0.00, 0.00, 1, 1,  6,  38.3987590, -78.0652308,   487.0, 2023, 10, 15, 17, 48, 47,      115,      385, 296,  73,   2.5,   1.2,   2.2,  0, 24,  0,  0,  0,  0,  0,  0,  0, 11,  0, 11,  0,  0,  0,  0,  0,  0,  0,  0, 27,  0, 16, 17, 33,  0,  0, 33,  0,  0, 32, 28
6, 10923, 3,N0AHK,     5.32, -95,  12, 5,   coast,  -14.58,  92347.00,  775.69,  590.92,  112.77, 25.1, 9.07, 0.00, 4.10,  -2.74,  -4.42,   1.54,-686.46, -24.11, -17.46,   0.12,  -0.29,  -0.18,  13.00, 0.00, 0.00, 0.00, 0.00, 0.00, 1, 1,  6,  38.3987590, -78.0652308,   487.0, 2023, 10, 15, 17, 48, 47,      115,      385, 296,  73,   2.5,   1.2,   2.2,  0, 24,  0,  0,  0,  0,  0,  0,  0, 11,  0, 11,  0,  0,  0,  0,  0,  0,  0,  0, 27,  0, 16, 17, 33,  0,  0, 33,  0,  0, 32, 28
6, 10923, 3,N0AHK,     5.40, -90,   6, 5,   coast,  -13.08,  92233.00,  785.92,  601.16,  111.26, 25.1, 9.07, 0.00, 4.10,  -2.53,  -4.49,  -0.24,-673.95, -16.54,  -7.69,   0.13,  -0.05,  -0.44,  11.00, 0.00, 0.00, 0.00, 0.00, 0.00, 1, 1,  6,  38.3987590, -78.0652308,   487.0, 2023, 10, 15, 17, 48, 47,      115,      385, 296,  73,   2.5,   1.2,   2.2,  0, 24,  0,  0,  0,  0,  0,  0,  0, 11,  0, 11,  0,  0,  0,  0,  0,  0,  0,  0, 27,  0, 16, 17, 33,  0,  0, 33,  0,  0, 32, 28
6, 10923, 3,N0AHK,     5.43, -88,   9, 5,   coast,  -13.08,  92233.00,  785.92,  601.16,  111.26, 25.1, 9.07, 0.00, 4.10,  -2.53,  -4.49,  -0.24,-673.95, -16.54,  -7.69,   0.13,  -0.05,  -0.44,  11.00, 0.00, 0.00, 0.00, 0.00, 0.00, 1, 1,  6,  38.3987590, -78.0652308,   487.0, 2023, 10, 15, 17, 48, 47,      115,      385, 296,  73,   2.5,   1.2,   2.2,  0, 24,  0,  0,  0,  0,  0,  0,  0, 11,  0, 11,  0,  0,  0,  0,  0,  0,  0,  0, 27,  0, 16, 17, 33,  0,  0, 33,  0,  0, 32, 28
6, 10923, 3,N0AHK,     5.51, -91,   6, 5,   coast,  -12.57,  92104.00,  797.52,  612.75,  109.86, 25.1, 9.07, 0.00, 4.10,  -2.58,  -4.06,   1.22,-663.94, -16.24, -16.85,   0.14,   0.26,  -0.28,  10.00, 0.00, 0.00, 0.00, 0.00, 0.00, 1, 1,  6,  38.3987590, -78.0652308,   487.0, 2023, 10, 15, 17, 48, 47,      115,      385, 296,  73,   2.5,   1.2,   2.2,  0, 24,  0,  0,  0,  0,  0,  0,  0, 11,  0, 11,  0,  0,  0,  0,  0,  0,  0,  0, 27,  0, 16, 17, 33,  0,  0, 33,  0,  0, 32, 28
6, 10923, 3,N0AHK,     5.54, -93,   8, 5,   coast,  -12.57,  92104.00,  797.52,  612.75,  109.86, 25.1, 9.07, 0.00, 4.10,  -2.58,  -4.06,   1.22,-663.94, -16.24, -16.85,   0.14,   0.26,  -0.28,  10.00, 0.00, 0.00, 0.00, 0.00, 0.00, 1, 1,  6,  38.3987590, -78.0652308,   487.0, 2023, 10, 15, 17, 48, 47,      115,      385, 296,  73,   2.5,   1.2,   2.2,  0, 24,  0,  0,  0,  0,  0,  0,  0, 11,  0, 11,  0,  0,  0,  0,  0,  0,  0,  0, 27,  0, 16, 17, 33,  0,  0, 33,  0,  0, 32, 28
6, 10923, 3,N0AHK,     5.62, -92,   7, 5,   coast,  -13.08,  92008.00,  806.15,  621.39,  108.45, 25.1, 9.07, 0.00, 4.10,  -2.41,  -3.74,   0.46,-656.25, -19.84, -15.01,   0.13,   0.20,   0.09,  11.00, 0.00, 0.00, 0.00, 0.00, 0.00, 1, 1,  6,  38.3987590, -78.0652308,   487.0, 2023, 10, 15, 17, 48, 47,      115,      385, 296,  73,   2.5,   1.2,   2.2,  0, 24,  0,  0,  0,  0,  0,  0,  0, 11,  0, 11,  0,  0,  0,  0,  0,  0,  0,  0, 27,  0, 16, 17, 33,  0,  0, 33,  0,  0, 32, 28
6, 10923, 3,N0AHK,     5.65, -91,   6, 5,   coast,  -13.08,  92008.00,  806.15,  621.39,  108.45, 25.1, 9.07, 0.00, 4.10,  -2.41,  -3.74,   0.46,-656.25, -19.84, -15.01,   0.13,   0.20,   0.09,  11.00, 0.00, 0.00, 0.00, 0.00, 0.00, 1, 1,  6,  38.3987590, -78.0652308,   487.0, 2023, 10, 15, 17, 48, 47,      115,      385, 296,  73,   2.5,   1.2,   2.2,  0, 24,  0,  0,  0,  0,  0,  0,  0, 11,  0, 11,  0,  0,  0,  0,  0,  0,  0,  0, 27,  0, 16, 17, 33,  0,  0, 33,  0,  0, 32, 28
6, 10923, 3,N0AHK,     5.73, -87,   7, 5,   coast,  -14.08,  91875.00,  818.13,  633.37,  106.97, 25.1, 9.07, 0.00, 4.10,  -2.27,  -2.77,  -0.78,-648.01, -15.14, -12.27,   0.12,  -0.15,   0.12,  13.00, 0.00, 0.00, 0.00, 0.00, 0.00, 1, 1,  6,  38.3987590, -78.0652308,   487.0, 2023, 10, 15, 17, 48, 47,      115,      385, 296,  73,   2.5,   1.2,   2.2,  0, 24,  0,  0,  0,  0,  0,  0,  0, 11,  0, 11,  0,  0,  0,  0,  0,  0,  0,  0, 27,  0, 16, 17, 33,  0,  0, 33,  0,  0, 32, 28
6, 10923, 3,N0AHK,     5.76, -88,   7, 5,   coast,  -14.08,  91875.00,  818.13,  633.37,  106.97, 25.1, 9.07, 0.00, 4.10,  -2.27,  -2.77,  -0.78,-648.01, -15.14, -12.27,   0.12,  -0.15,   0.12,  13.00, 0.00, 0.00, 0.00, 0.00, 0.00, 1, 1,  6,  38.3987590, -78.0652308,   487.0, 2023, 10, 15, 17, 48, 47,      115,      385, 296,  73,   2.5,   1.2,   2.2,  0, 24,  0,  0,  0,  0,  0,  0,  0, 11,  0, 11,  0,  0,  0,  0,  0,  0,  0,  0, 27,  0, 16, 17, 33,  0,  0, 33,  0,  0, 32, 28
6, 10923, 3,N0AHK,     5.87,-106,  10, 5,   coast,  -14.08,  91875.00,  818.13,  633.37,  106.97, 25.1, 9.07, 0.00, 4.10,  -2.27,  -2.77,  -0.78,-648.01, -15.14, -12.27,   0.12,  -0.15,   0.12,  13.00, 0.00, 0.00, 0.00, 0.00, 0.00, 1, 1,  6,  38.3987590, -78.0652308,   487.0, 2023, 10, 15, 17, 48, 47,      115,      385, 296,  73,   2.5,   1.2,   2.2,  0, 24,  0,  0,  0,  0,  0,  0,  0, 11,  0, 11,  0,  0,  0,  0,  0,  0,  0,  0, 27,  0, 16, 17, 33,  0,  0, 33,  0,  0, 32, 28
6, 10923, 3,N0AHK,     5.95, -91,   8, 5,   coast,  -12.07,  91648.00,  838.61,  653.84,  104.11, 25.1, 9.07, 0.00, 4.10,  -2.16,  -2.37,   0.47,-624.33, -14.95,  -9.95,   0.13,  -0.05,  -0.44,  11.00, 0.00, 0.00, 0.00, 0.00, 0.00, 1, 1,  6,  38.3987590, -78.0652308,   487.0, 2023, 10, 15, 17, 48, 47,      115,      385, 296,  73,   2.5,   1.2,   2.2,  0, 24,  0,  0,  0,  0,  0,  0,  0, 11,  0, 11,  0,  0,  0,  0,  0,  0,  0,  0, 27,  0, 16, 17, 33,  0,  0, 33,  0,  0, 32, 28
6, 10923, 3,N0AHK,     5.98, -91,   5, 5,   coast,  -12.07,  91648.00,  838.61,  653.84,  104.11, 25.1, 9.07, 0.00, 4.10,  -2.16,  -2.37,   0.47,-624.33, -14.95,  -9.95,   0.13,  -0.05,  -0.44,  11.00, 0.00, 0.00, 0.00, 0.00, 0.00, 1, 1,  6,  38.3987590, -78.0652308,   487.0, 2023, 10, 15, 17, 48, 47,      115,      385, 296,  73,   2.5,   1.2,   2.2,  0, 24,  0,  0,  0,  0,  0,  0,  0, 11,  0, 11,  0,  0,  0,  0,  0,  0,  0,  0, 27,  0, 16, 17, 33,  0,  0, 33,  0,  0, 32, 28
6, 10923, 3,N0AHK,     6.06, -90,   4, 5,   coast,  -13.08,  91556.00,  846.92,  662.15,  102.73, 25.1, 9.07, 0.00, 4.10,  -2.21,  -3.87,   0.70,-613.89,  -5.55, -12.45,   0.14,   0.25,  -0.31,  10.00, 0.00, 0.00, 0.00, 0.00, 0.00, 1, 1,  6,  38.3987590, -78.0652308,   487.0, 2023, 10, 15, 17, 48, 47,      115,      385, 296,  73,   2.5,   1.2,   2.2,  0, 24,  0,  0,  0,  0,  0,  0,  0, 11,  0, 11,  0,  0,  0,  0,  0,  0,  0,  0, 27,  0, 16, 17, 33,  0,  0, 33,  0,  0, 32, 28
6, 10923, 3,N0AHK,     6.09, -91,   7, 5,   coast,  -13.08,  91556.00,  846.92,  662.15,  102.73, 25.1, 9.07, 0.00, 4.10,  -2.21,  -3.87,   0.70,-613.89,  -5.55, -12.45,   0.14,   0.25,  -0.31,  10.00, 0.00, 0.00, 0.00, 0.00, 0.00, 1, 1,  6,  38.3987590, -78.0652308,   487.0, 2023, 10, 15, 17, 48, 47,      115,      385, 296,  73,   2.5,   1.2,   2.2,  0, 29,  0,  0,  0,  0,  0,  0,  0, 11,  0, 10,  0,  0,  0,  0,  0, 33,  0,  0, 32,  0, 14, 16, 28,  0,  0, 35,  0,  0, 32, 29
6, 10923, 3,N0AHK,     6.09, -91,  12, 5,   coast,  -13.08,  91556.00,  846.92,  662.15,  102.73, 25.1, 9.07, 0.00, 4.10,  -2.21,  -3.87,   0.70,-613.89,  -5.55, -12.45,   0.14,   0.25,  -0.31,  10.00, 0.00, 0.00, 0.00, 0.00, 0.00, 1, 1,  6,  38.3987590, -78.0652308,   487.0, 2023, 10, 15, 17, 48, 47,      115,      385, 296,  73,   2.5,   1.2,   2.2,  0, 29,  0,  0,  0,  0,  0,  0,  0, 11,  0, 10,  0,  0,  0,  0,  0, 33,  0,  0, 32,  0, 14, 16, 28,  0,  0, 35,  0,  0, 32, 29
6, 10923, 3,N0AHK,     6.09, -97,  15, 5,   coast,  -13.08,  91556.00,  846.92,  662.15,  102.73, 25.1, 9.07, 0.00, 4.10,  -2.21,  -3.87,   0.70,-613.89,  -5.55, -12.45,   0.14,   0.25,  -0.31,  10.00, 0.00, 0.00, 0.00, 0.00, 0.00, 1, 1,  6,  38.3987590, -78.0652308,   487.0, 2023, 10, 15, 17, 48, 47,      115,      385, 296,  73,   2.5,   1.2,   2.2,  0, 29,  0,  0,  0,  0,  0,  0,  0, 11,  0, 10,  0,  0,  0,  0,  0, 33,  0,  0, 32,  0, 14, 16, 28,  0,  0, 35,  0,  0, 32, 29
6, 10923, 3,N0AHK,     6.20,-100,  15, 5,   coast,  -13.08,  91556.00,  846.92,  662.15,  102.73, 25.1, 9.01, 0.00, 4.10,  -2.21,  -3.87,   0.70,-613.89,  -5.55, -12.45,   0.14,   0.25,  -0.31,  10.00, 0.00, 0.00, 0.00, 0.00, 0.00, 1, 1,  6,  38.3987590, -78.0652308,   487.0, 2023, 10, 15, 17, 48, 47,      115,      385, 296,  73,   2.5,   1.2,   2.2,  0, 29,  0,  0,  0,  0,  0,  0,  0, 11,  0, 10,  0,  0,  0,  0,  0, 33,  0,  0, 32,  0, 14, 16, 28,  0,  0, 35,  0,  0, 32, 29
6, 10923, 3,N0AHK,     6.28, -91,   8, 5,   coast,  -13.58,  91341.00,  866.36,  681.60,   99.82, 25.1, 9.01, 0.00, 4.10,  -1.95,  -3.34,   0.33,-594.54, -14.89,  -3.54,   0.12,  -0.06,   0.16,  13.00, 0.00, 0.00, 0.00, 0.00, 0.00, 1, 1,  6,  38.3987590, -78.0652308,   487.0, 2023, 10, 15, 17, 48, 47,      115,      385, 296,  73,   2.5,   1.2,   2.2,  0, 29,  0,  0,  0,  0,  0,  0,  0, 11,  0, 10,  0,  0,  0,  0,  0, 33,  0,  0, 32,  0, 14, 16, 28,  0,  0, 35,  0,  0, 32, 29
6, 10923, 3,N0AHK,     6.31, -93,   7, 5,   coast,  -13.58,  91341.00,  866.36,  681.60,   99.82, 25.1, 9.07, 0.00, 4.09,  -1.95,  -3.34,   0.33,-594.54, -14.89,  -3.54,   0.12,  -0.06,   0.16,  13.00, 0.00, 0.00, 0.00, 0.00, 0.00, 1, 1,  6,  38.3987590, -78.0652308,   487.0, 2023, 10, 15, 17, 48, 47,      115,      385, 296,  73,   2.5,   1.2,   2.2,  0, 29,  0,  0,  0,  0,  0,  0,  0, 11,  0, 10,  0,  0,  0,  0,  0, 33,  0,  0, 32,  0, 14, 16, 28,  0,  0, 35,  0,  0, 32, 29
6, 10923, 3,N0AHK,     6.39, -93,   8, 5,   coast,  -12.07,  91231.00,  876.33,  691.56,   98.41, 25.1, 9.07, 0.00, 4.09,  -2.02,  -3.76,   1.46,-588.26, -10.62, -13.61,   0.11,  -0.29,  -0.08,  14.00, 0.00, 0.00, 0.00, 0.00, 0.00, 1, 1,  6,  38.3987590, -78.0652308,   487.0, 2023, 10, 15, 17, 48, 47,      115,      385, 296,  73,   2.5,   1.2,   2.2,  0, 29,  0,  0,  0,  0,  0,  0,  0, 11,  0, 10,  0,  0,  0,  0,  0, 33,  0,  0, 32,  0, 14, 16, 28,  0,  0, 35,  0,  0, 32, 29
6, 10923, 3,N0AHK,     6.42, -92,   5, 5,   coast,  -12.07,  91231.00,  876.33,  691.56,   98.41, 25.1, 9.07, 0.00, 4.10,  -2.02,  -3.76,   1.46,-588.26, -10.62, -13.61,   0.11,  -0.29,  -0.08,  14.00, 0.00, 0.00, 0.00, 0.00, 0.00, 1, 1,  6,  38.3987590, -78.0652308,   487.0, 2023, 10, 15, 17, 48, 47,      115,      385, 296,  73,   2.5,   1.2,   2.2,  0, 29,  0,  0,  0,  0,  0,  0,  0, 11,  0, 10,  0,  0,  0,  0,  0, 33,  0,  0, 32,  0, 14, 16, 28,  0,  0, 35,  0,  0, 32, 29
6, 10923, 3,N0AHK,     6.50, -91,   8, 5,   coast,  -13.58,  91134.00,  885.12,  700.36,   97.01, 25.1, 9.07, 0.00, 4.10,  -1.87,  -2.49,   0.86,-579.10, -17.03,  -8.48,   0.12,  -0.18,  -0.39,  13.00, 0.00, 0.00, 0.00, 0.00, 0.00, 1, 1,  6,  38.3987590, -78.0652308,   487.0, 2023, 10, 15, 17, 48, 47,      115,      385, 296,  73,   2.5,   1.2,   2.2,  0, 29,  0,  0,  0,  0,  0,  0,  0, 11,  0, 10,  0,  0,  0,  0,  0, 33,  0,  0, 32,  0, 14, 16, 28,  0,  0, 35,  0,  0, 32, 29
6, 10923, 3,N0AHK,     6.53, -91,   9, 5,   coast,  -13.58,  91134.00,  885.12,  700.36,   97.01, 25.1, 9.07, 0.00, 4.09,  -1.87,  -2.49,   0.86,-579.10, -17.03,  -8.48,   0.12,  -0.18,  -0.39,  13.00, 0.00, 0.00, 0.00, 0.00, 0.00, 1, 1,  6,  38.3987590, -78.0652308,   487.0, 2023, 10, 15, 17, 48, 47,      115,      385, 296,  73,   2.5,   1.2,   2.2,  0, 29,  0,  0,  0,  0,  0,  0,  0, 11,  0, 10,  0,  0,  0,  0,  0, 33,  0,  0, 32,  0, 14, 16, 28,  0,  0, 35,  0,  0, 32, 29
6, 10923, 3,N0AHK,     6.61, -87,   8, 5,   coast,  -14.58,  91028.00,  894.74,  709.98,   95.47, 25.1, 9.07, 0.00, 4.09,  -1.80,  -2.64,   0.59,-569.27,  -9.70,  -5.31,   0.13,   0.12,  -0.42,  11.00, 0.00, 0.00, 0.00, 0.00, 0.00, 1, 1,  6,  38.3987590, -78.0652308,   487.0, 2023, 10, 15, 17, 48, 47,      115,      385, 296,  73,   2.5,   1.2,   2.2,  0, 29,  0,  0,  0,  0,  0,  0,  0, 11,  0, 10,  0,  0,  0,  0,  0, 33,  0,  0, 32,  0, 14, 16, 28,  0,  0, 35,  0,  0, 32, 29
6, 10923, 3,N0AHK,     6.64, -88,   8, 5,   coast,  -14.58,  91028.00,  894.74,  709.98,   95.47, 25.1, 9.01, 0.00, 4.10,  -1.80,  -2.64,   0.59,-569.27,  -9.70,  -5.31,   0.13,   0.12,  -0.42,  11.00, 0.00, 0.00, 0.00, 0.00, 0.00, 1, 1,  6,  38.3987590, -78.0652308,   487.0, 2023, 10, 15, 17, 48, 47,      115,      385, 296,  73,   2.5,   1.2,   2.2,  0, 29,  0,  0,  0,  0,  0,  0,  0, 11,  0, 10,  0,  0,  0,  0,  0, 33,  0,  0, 32,  0, 14, 16, 28,  0,  0, 35,  0,  0, 32, 29
6, 10923, 3,N0AHK,     6.72, -89,   7, 5,   coast,  -13.08,  90939.00,  902.82,  718.06,   93.96, 25.1, 9.01, 0.00, 4.10,  -1.82,  -3.01,   1.21,-560.85, -11.78, -12.94,   0.13,   0.31,  -0.17,  11.00, 0.00, 0.00, 0.00, 0.00, 0.00, 1, 1,  6,  38.3987590, -78.0652308,   487.0, 2023, 10, 15, 17, 48, 47,      115,      385, 296,  73,   2.5,   1.2,   2.2,  0, 29,  0,  0,  0,  0,  0,  0,  0, 11,  0, 10,  0,  0,  0,  0,  0, 33,  0,  0, 32,  0, 14, 16, 28,  0,  0, 35,  0,  0, 32, 29
6, 10923, 3,N0AHK,     6.75, -91,  10, 5,   coast,  -13.08,  90939.00,  902.82,  718.06,   93.96, 25.1, 9.07, 0.00, 4.10,  -1.82,  -3.01,   1.21,-560.85, -11.78, -12.94,   0.13,   0.31,  -0.17,  11.00, 0.00, 0.00, 0.00, 0.00, 0.00, 1, 1,  6,  38.3987590, -78.0652308,   487.0, 2023, 10, 15, 17, 48, 47,      115,      385, 296,  73,   2.5,   1.2,   2.2,  0, 29,  0,  0,  0,  0,  0,  0,  0, 11,  0, 10,  0,  0,  0,  0,  0, 33,  0,  0, 32,  0, 14, 16, 28,  0,  0, 35,  0,  0, 32, 29
6, 10923, 3,N0AHK,     6.86,-100,  15, 5,   coast,  -13.08,  90939.00,  902.82,  718.06,   93.96, 25.1, 9.07, 0.00, 4.10,  -1.82,  -3.01,   1.21,-560.85, -11.78, -12.94,   0.13,   0.31,  -0.17,  11.00, 0.00, 0.00, 0.00, 0.00, 0.00, 1, 1,  6,  38.3987590, -78.0652308,   487.0, 2023, 10, 15, 17, 48, 47,      115,      385, 296,  73,   2.5,   1.2,   2.2,  0, 29,  0,  0,  0,  0,  0,  0,  0, 11,  0, 10,  0,  0,  0,  0,  0, 33,  0,  0, 32,  0, 14, 16, 28,  0,  0, 35,  0,  0, 32, 29
6, 10923, 3,N0AHK,     6.94, -94,  12, 5,   coast,  -13.08,  90742.00,  920.74,  735.97,   91.10, 25.1, 9.07, 0.00, 4.10,  -1.62,  -3.03,   0.80,-537.17, -10.86,  -7.57,   0.11,  -0.14,   0.13,  14.00, 0.00, 0.00, 0.00, 0.00, 0.00, 1, 1,  6,  38.3987590, -78.0652308,   487.0, 2023, 10, 15, 17, 48, 47,      115,      385, 296,  73,   2.5,   1.2,   2.2,  0, 29,  0,  0,  0,  0,  0,  0,  0, 11,  0, 10,  0,  0,  0,  0,  0, 33,  0,  0, 32,  0, 14, 16, 28,  0,  0, 35,  0,  0, 32, 29
6, 10923, 3,N0AHK,     7.05, -97,   8, 5,   coast,  -10.56,  90647.00,  929.39,  744.63,   89.81, 25.1, 9.07, 0.00, 4.10,  -1.65,  -1.66,   1.19,-531.98, -15.32,  -8.67,   0.11,  -0.30,  -0.13,  14.00, 0.00, 0.00, 0.00, 0.00, 0.00, 1, 1,  6,  38.3987590, -78.0652308,   487.0, 2023, 10, 15, 17, 48, 47,      115,      385, 296,  73,   2.5,   1.2,   2.2,  0, 29,  0,  0,  0,  0,  0,  0,  0, 11,  0, 10,  0,  0,  0,  0,  0, 33,  0,  0, 32,  0, 14, 16, 28,  0,  0, 35,  0,  0, 32, 29
6, 10923, 3,N0AHK,     7.09, -93,   6, 5,   coast,  -10.56,  90647.00,  929.39,  744.63,   89.81, 25.1, 9.07, 0.00, 4.10,  -1.65,  -1.66,   1.19,-531.98, -15.32,  -8.67,   0.11,  -0.30,  -0.13,  14.00, 0.00, 0.00, 0.00, 0.00, 0.00, 1, 1,  6,  38.3990798, -78.0650031,   708.0, 2023, 10, 15, 17, 48, 49,      120,      601, 316,  78,   2.3,   1.2,   1.9,  0, 29,  0,  0,  0,  0,  0,  0,  0, 11,  0, 10,  0,  0,  0,  0,  0, 33,  0,  0, 32,  0, 14, 16, 28,  0,  0, 35,  0,  0, 32, 29
6, 10923, 3,N0AHK,     7.16, -93,   6, 5,   coast,  -12.57,  90568.00,  936.59,  751.82,   88.54, 25.1, 9.07, 0.00, 4.10,  -1.55,  -1.68,   0.15,-523.07,  -8.91,  -1.10,   0.11,  -0.18,  -0.40,  14.00, 0.00, 0.00, 0.00, 0.00, 0.00, 1, 1,  6,  38.3990798, -78.0650031,   708.0, 2023, 10, 15, 17, 48, 49,      120,      601, 316,  78,   2.3,   1.2,   1.9,  0, 29,  0,  0,  0,  0,  0,  0,  0, 11,  0, 10,  0,  0,  0,  0,  0, 33,  0,  0, 32,  0, 14, 16, 28,  0,  0, 35,  0,  0, 32, 29
6, 10923, 3,N0AHK,     7.19, -91,   8, 5,   coast,  -12.57,  90568.00,  936.59,  751.82,   88.54, 25.1, 9.07, 0.00, 4.10,  -1.55,  -1.68,   0.15,-523.07,  -8.91,  -1.10,   0.11,  -0.18,  -0.40,  14.00, 0.00, 0.00, 0.00, 0.00, 0.00, 1, 1,  6,  38.3990798, -78.0650031,   708.0, 2023, 10, 15, 17, 48, 49,      120,      601, 316,  78,   2.3,   1.2,   1.9,  0, 25,  0,  0,  0,  0,  0,  0,  0, 10,  0,  9,  0,  0,  0,  0,  0, 34,  0,  0, 25,  0, 11, 13, 34,  0,  0, 33,  0,  0, 35, 28
6, 10923, 3,N0AHK,     7.19, -91,   6, 5,   coast,  -12.57,  90568.00,  936.59,  751.82,   88.54, 25.1, 9.07, 0.00, 4.10,  -1.55,  -1.68,   0.15,-523.07,  -8.91,  -1.10,   0.11,  -0.18,  -0.40,  14.00, 0.00, 0.00, 0.00, 0.00, 0.00, 1, 1,  6,  38.3990798, -78.0650031,   708.0, 2023, 10, 15, 17, 48, 49,      120,      601, 316,  78,   2.3,   1.2,   1.9,  0, 25,  0,  0,  0,  0,  0,  0,  0, 10,  0,  9,  0,  0,  0,  0,  0, 34,  0,  0, 25,  0, 11, 13, 34,  0,  0, 33,  0,  0, 35, 28
6, 10923, 3,N0AHK,     7.27, -89,   7, 5,   coast,  -12.07,  90469.00,  945.62,  760.85,   87.19, 25.1, 9.07, 0.00, 4.10,  -1.57,  -2.32,   0.99,-516.85,  -3.42,  -4.03,   0.12,   0.11,  -0.45,  14.00, 0.00, 0.00, 0.00, 0.00, 0.00, 1, 1,  6,  38.3990798, -78.0650031,   708.0, 2023, 10, 15, 17, 48, 49,      120,      601, 316,  78,   2.3,   1.2,   1.9,  0, 25,  0,  0,  0,  0,  0,  0,  0, 10,  0,  9,  0,  0,  0,  0,  0, 34,  0,  0, 25,  0, 11, 13, 34,  0,  0, 33,  0,  0, 35, 28
6, 10923, 3,N0AHK,     7.30, -89,   7, 5,   coast,  -12.07,  90469.00,  945.62,  760.85,   87.19, 25.1, 9.07, 0.00, 4.10,  -1.57,  -2.32,   0.99,-516.85,  -3.42,  -4.03,   0.12,   0.11,  -0.45,  14.00, 0.00, 0.00, 0.00, 0.00, 0.00, 1, 1,  6,  38.3990798, -78.0650031,   708.0, 2023, 10, 15, 17, 48, 49,      120,      601, 316,  78,   2.3,   1.2,   1.9,  0, 25,  0,  0,  0,  0,  0,  0,  0, 10,  0,  9,  0,  0,  0,  0,  0, 34,  0,  0, 25,  0, 11, 13, 34,  0,  0, 33,  0,  0, 35, 28
